{"_meta": {"source": "open-meteo", "kind": "weather-forecast", "city": "Munich", "latitude": 48.3538, "longitude": 11.7861, "temperature_unit": "celsius", "station": "Munich Airport", "fetched_at_utc": "2026-06-25T00:01:04.694193+00:00"}, "response": {"latitude": 48.36, "longitude": 11.779999, "generationtime_ms": 0.046253204345703125, "utc_offset_seconds": 7200, "timezone": "Europe/Berlin", "timezone_abbreviation": "GMT+2", "elevation": 453.0, "daily_units": {"time": "iso8601", "temperature_2m_max": "°C", "temperature_2m_min": "°C"}, "daily": {"time": ["2026-06-25", "2026-06-26", "2026-06-27"], "temperature_2m_max": [34.0, 34.5, 36.5], "temperature_2m_min": [18.4, 17.4, 17.2]}}}
{"_meta": {"source": "open-meteo", "kind": "weather-archive", "city": "Munich", "latitude": 48.3538, "longitude": 11.7861, "temperature_unit": "celsius", "station": "Munich Airport", "fetched_at_utc": "2026-06-25T00:01:05.081994+00:00"}, "response": {"latitude": 48.330402, "longitude": 11.758794, "generationtime_ms": 0.08666515350341797, "utc_offset_seconds": 7200, "timezone": "Europe/Berlin", "timezone_abbreviation": "GMT+2", "elevation": 453.0, "daily_units": {"time": "iso8601", "temperature_2m_max": "°C", "temperature_2m_min": "°C"}, "daily": {"time": ["2026-06-18", "2026-06-19", "2026-06-20", "2026-06-21", "2026-06-22", "2026-06-23", "2026-06-24"], "temperature_2m_max": [28.4, 31.0, 30.8, 30.5, 29.9, 30.0, 30.1], "temperature_2m_min": [14.8, 16.7, 18.7, 19.0, 18.2, 18.5, 19.2]}}}
{"_meta": {"source": "open-meteo", "kind": "weather-forecast", "city": "London", "latitude": 51.5048, "longitude": 0.0495, "temperature_unit": "celsius", "station": "London City Airport", "fetched_at_utc": "2026-06-25T00:01:05.176295+00:00"}, "response": {"latitude": 51.5, "longitude": 0.0, "generationtime_ms": 0.053763389587402344, "utc_offset_seconds": 3600, "timezone": "Europe/London", "timezone_abbreviation": "GMT+1", "elevation": 5.0, "daily_units": {"time": "iso8601", "temperature_2m_max": "°C", "temperature_2m_min": "°C"}, "daily": {"time": ["2026-06-25", "2026-06-26", "2026-06-27"], "temperature_2m_max": [29.3, 35.8, 30.7], "temperature_2m_min": [21.4, 23.6, 23.0]}}}
{"_meta": {"source": "open-meteo", "kind": "weather-archive", "city": "London", "latitude": 51.5048, "longitude": 0.0495, "temperature_unit": "celsius", "station": "London City Airport", "fetched_at_utc": "2026-06-25T00:01:05.273078+00:00"}, "response": {"latitude": 51.493847, "longitude": 0.0, "generationtime_ms": 0.09417533874511719, "utc_offset_seconds": 3600, "timezone": "Europe/London", "timezone_abbreviation": "GMT+1", "elevation": 5.0, "daily_units": {"time": "iso8601", "temperature_2m_max": "°C", "temperature_2m_min": "°C"}, "daily": {"time": ["2026-06-18", "2026-06-19", "2026-06-20", "2026-06-21", "2026-06-22", "2026-06-23", "2026-06-24"], "temperature_2m_max": [25.8, 30.0, 26.2, 30.2, 27.8, 32.5, 33.4], "temperature_2m_min": [16.7, 18.2, 17.5, 18.9, 17.2, 18.2, 20.8]}}}
{"_meta": {"source": "open-meteo", "kind": "weather-forecast", "city": "NYC", "latitude": 40.7769, "longitude": -73.874, "temperature_unit": "fahrenheit", "station": "LaGuardia Airport", "fetched_at_utc": "2026-06-25T00:01:05.370839+00:00"}, "response": {"latitude": 40.76809, "longitude": -73.862785, "generationtime_ms": 0.09369850158691406, "utc_offset_seconds": -14400, "timezone": "America/New_York", "timezone_abbreviation": "GMT-4", "elevation": 1.0, "daily_units": {"time": "iso8601", "temperature_2m_max": "°F", "temperature_2m_min": "°F"}, "daily": {"time": ["2026-06-24", "2026-06-25", "2026-06-26"], "temperature_2m_max": [84.5, 85.1, 84.4], "temperature_2m_min": [61.7, 62.4, 65.3]}}}
{"_meta": {"source": "open-meteo", "kind": "weather-archive", "city": "NYC", "latitude": 40.7769, "longitude": -73.874, "temperature_unit": "fahrenheit", "station": "LaGuardia Airport", "fetched_at_utc": "2026-06-25T00:01:05.465907+00:00"}, "response": {"latitude": 40.808434, "longitude": -73.89206, "generationtime_ms": 0.06604194641113281, "utc_offset_seconds": -14400, "timezone": "America/New_York", "timezone_abbreviation": "GMT-4", "elevation": 1.0, "daily_units": {"time": "iso8601", "temperature_2m_max": "°F", "temperature_2m_min": "°F"}, "daily": {"time": ["2026-06-18", "2026-06-19", "2026-06-20", "2026-06-21", "2026-06-22", "2026-06-23", "2026-06-24"], "temperature_2m_max": [90.1, 84.4, 84.0, 84.3, 76.4, 70.7, 80.6], "temperature_2m_min": [67.7, 71.3, 67.4, 66.5, 68.3, 67.6, 63.7]}}}
{"_meta": {"source": "open-meteo", "kind": "weather-forecast", "city": "Tokyo", "latitude": 35.5494, "longitude": 139.7798, "temperature_unit": "celsius", "station": "Tokyo Haneda Airport", "fetched_at_utc": "2026-06-25T00:01:05.559959+00:00"}, "response": {"latitude": 35.55, "longitude": 139.75, "generationtime_ms": 0.02658367156982422, "utc_offset_seconds": 32400, "timezone": "Asia/Tokyo", "timezone_abbreviation": "GMT+9", "elevation": 3.0, "daily_units": {"time": "iso8601", "temperature_2m_max": "°C", "temperature_2m_min": "°C"}, "daily": {"time": ["2026-06-25", "2026-06-26", "2026-06-27"], "temperature_2m_max": [21.7, 26.2, 24.4], "temperature_2m_min": [19.9, 19.5, 21.7]}}}
{"_meta": {"source": "open-meteo", "kind": "weather-archive", "city": "Tokyo", "latitude": 35.5494, "longitude": 139.7798, "temperature_unit": "celsius", "station": "Tokyo Haneda Airport", "fetched_at_utc": "2026-06-25T00:01:05.657032+00:00"}, "response": {"latitude": 35.606327, "longitude": 139.74292, "generationtime_ms": 0.09083747863769531, "utc_offset_seconds": 32400, "timezone": "Asia/Tokyo", "timezone_abbreviation": "GMT+9", "elevation": 3.0, "daily_units": {"time": "iso8601", "temperature_2m_max": "°C", "temperature_2m_min": "°C"}, "daily": {"time": ["2026-06-18", "2026-06-19", "2026-06-20", "2026-06-21", "2026-06-22", "2026-06-23", "2026-06-24"], "temperature_2m_max": [26.7, 25.9, 23.9, 26.2, 25.7, 23.4, 24.8], "temperature_2m_min": [20.1, 19.9, 21.1, 21.5, 20.3, 18.4, 17.7]}}}
