{"_meta": {"source": "open-meteo", "kind": "weather-forecast", "city": "Munich", "latitude": 48.3538, "longitude": 11.7861, "temperature_unit": "celsius", "station": "Munich Airport", "fetched_at_utc": "2026-07-02T00:01:15.903704+00:00"}, "response": {"latitude": 48.36, "longitude": 11.779999, "generationtime_ms": 0.05984306335449219, "utc_offset_seconds": 7200, "timezone": "Europe/Berlin", "timezone_abbreviation": "GMT+2", "elevation": 453.0, "daily_units": {"time": "iso8601", "temperature_2m_max": "°C", "temperature_2m_min": "°C"}, "daily": {"time": ["2026-07-02", "2026-07-03", "2026-07-04"], "temperature_2m_max": [24.9, 23.2, 24.3], "temperature_2m_min": [13.3, 15.7, 10.2]}}}
{"_meta": {"source": "open-meteo", "kind": "weather-archive", "city": "Munich", "latitude": 48.3538, "longitude": 11.7861, "temperature_unit": "celsius", "station": "Munich Airport", "fetched_at_utc": "2026-07-02T00:01:16.333844+00:00"}, "response": {"latitude": 48.330402, "longitude": 11.758794, "generationtime_ms": 0.047087669372558594, "utc_offset_seconds": 7200, "timezone": "Europe/Berlin", "timezone_abbreviation": "GMT+2", "elevation": 453.0, "daily_units": {"time": "iso8601", "temperature_2m_max": "°C", "temperature_2m_min": "°C"}, "daily": {"time": ["2026-06-25", "2026-06-26", "2026-06-27", "2026-06-28", "2026-06-29", "2026-06-30", "2026-07-01"], "temperature_2m_max": [32.0, 32.6, 34.1, 33.8, 27.8, 26.6, 20.6], "temperature_2m_min": [19.9, 19.8, 19.9, 21.6, 19.4, 18.0, 15.9]}}}
{"_meta": {"source": "open-meteo", "kind": "weather-forecast", "city": "London", "latitude": 51.5048, "longitude": 0.0495, "temperature_unit": "celsius", "station": "London City Airport", "fetched_at_utc": "2026-07-02T00:01:16.432107+00:00"}, "response": {"latitude": 51.5, "longitude": 0.0, "generationtime_ms": 0.110626220703125, "utc_offset_seconds": 3600, "timezone": "Europe/London", "timezone_abbreviation": "GMT+1", "elevation": 5.0, "daily_units": {"time": "iso8601", "temperature_2m_max": "°C", "temperature_2m_min": "°C"}, "daily": {"time": ["2026-07-02", "2026-07-03", "2026-07-04"], "temperature_2m_max": [24.7, 26.1, 26.8], "temperature_2m_min": [17.6, 15.6, 16.8]}}}
{"_meta": {"source": "open-meteo", "kind": "weather-archive", "city": "London", "latitude": 51.5048, "longitude": 0.0495, "temperature_unit": "celsius", "station": "London City Airport", "fetched_at_utc": "2026-07-02T00:01:16.531450+00:00"}, "response": {"latitude": 51.493847, "longitude": 0.0, "generationtime_ms": 0.06008148193359375, "utc_offset_seconds": 3600, "timezone": "Europe/London", "timezone_abbreviation": "GMT+1", "elevation": 5.0, "daily_units": {"time": "iso8601", "temperature_2m_max": "°C", "temperature_2m_min": "°C"}, "daily": {"time": ["2026-06-25", "2026-06-26", "2026-06-27", "2026-06-28", "2026-06-29", "2026-06-30", "2026-07-01"], "temperature_2m_max": [30.2, 36.3, 32.0, 26.2, 24.4, 25.1, 25.1], "temperature_2m_min": [19.6, 23.1, 22.4, 19.5, 14.5, 18.0, 16.3]}}}
{"_meta": {"source": "open-meteo", "kind": "weather-forecast", "city": "NYC", "latitude": 40.7769, "longitude": -73.874, "temperature_unit": "fahrenheit", "station": "LaGuardia Airport", "fetched_at_utc": "2026-07-02T00:01:16.629311+00:00"}, "response": {"latitude": 40.76809, "longitude": -73.862785, "generationtime_ms": 0.040531158447265625, "utc_offset_seconds": -14400, "timezone": "America/New_York", "timezone_abbreviation": "GMT-4", "elevation": 1.0, "daily_units": {"time": "iso8601", "temperature_2m_max": "°F", "temperature_2m_min": "°F"}, "daily": {"time": ["2026-07-01", "2026-07-02", "2026-07-03"], "temperature_2m_max": [94.0, 103.6, 104.9], "temperature_2m_min": [75.1, 78.6, 80.1]}}}
{"_meta": {"source": "open-meteo", "kind": "weather-archive", "city": "NYC", "latitude": 40.7769, "longitude": -73.874, "temperature_unit": "fahrenheit", "station": "LaGuardia Airport", "fetched_at_utc": "2026-07-02T00:01:16.730148+00:00"}, "response": {"latitude": 40.808434, "longitude": -73.89206, "generationtime_ms": 0.04184246063232422, "utc_offset_seconds": -14400, "timezone": "America/New_York", "timezone_abbreviation": "GMT-4", "elevation": 1.0, "daily_units": {"time": "iso8601", "temperature_2m_max": "°F", "temperature_2m_min": "°F"}, "daily": {"time": ["2026-06-25", "2026-06-26", "2026-06-27", "2026-06-28", "2026-06-29", "2026-06-30", "2026-07-01"], "temperature_2m_max": [82.6, 81.3, 78.2, 80.2, 87.9, 92.0, 92.1], "temperature_2m_min": [63.2, 66.6, 70.1, 67.8, 66.8, 72.0, 72.6]}}}
{"_meta": {"source": "open-meteo", "kind": "weather-forecast", "city": "Tokyo", "latitude": 35.5494, "longitude": 139.7798, "temperature_unit": "celsius", "station": "Tokyo Haneda Airport", "fetched_at_utc": "2026-07-02T00:01:16.828621+00:00"}, "response": {"latitude": 35.55, "longitude": 139.75, "generationtime_ms": 0.048041343688964844, "utc_offset_seconds": 32400, "timezone": "Asia/Tokyo", "timezone_abbreviation": "GMT+9", "elevation": 3.0, "daily_units": {"time": "iso8601", "temperature_2m_max": "°C", "temperature_2m_min": "°C"}, "daily": {"time": ["2026-07-02", "2026-07-03", "2026-07-04"], "temperature_2m_max": [23.3, 24.8, 25.1], "temperature_2m_min": [21.4, 21.1, 20.7]}}}
{"_meta": {"source": "open-meteo", "kind": "weather-archive", "city": "Tokyo", "latitude": 35.5494, "longitude": 139.7798, "temperature_unit": "celsius", "station": "Tokyo Haneda Airport", "fetched_at_utc": "2026-07-02T00:01:16.929090+00:00"}, "response": {"latitude": 35.606327, "longitude": 139.74292, "generationtime_ms": 0.048160552978515625, "utc_offset_seconds": 32400, "timezone": "Asia/Tokyo", "timezone_abbreviation": "GMT+9", "elevation": 3.0, "daily_units": {"time": "iso8601", "temperature_2m_max": "°C", "temperature_2m_min": "°C"}, "daily": {"time": ["2026-06-25", "2026-06-26", "2026-06-27", "2026-06-28", "2026-06-29", "2026-06-30", "2026-07-01"], "temperature_2m_max": [22.7, 25.9, 23.6, 23.6, 25.8, 27.1, 26.3], "temperature_2m_min": [20.1, 20.2, 21.1, 21.6, 20.5, 20.8, 20.5]}}}
